City,Lat,Lng,Max Temp,Humidity,Cloudiness,Wind Speed,Country,Date
Half Moon Bay,37.4636,-122.4286,65.44,85,100,19.57,US,1651722807
Guerrero Negro,27.9769,-114.0611,59.72,81,0,13.47,MX,1651722810
Mataura,-46.1927,168.8643,66.47,69,47,2.08,NZ,1651722810
Mahébourg,-20.4081,57.7,78.26,83,40,14.97,MU,1651722811
Yashalta,46.3395,42.2762,55.9,71,100,5.14,RU,1651722811
Vaini,-21.2,-175.2,75.36,94,75,3.44,TO,1651722812
Arraial do Cabo,-22.9661,-42.0278,75.31,88,88,8.01,BR,1651722812
Cape Town,-33.9258,18.4232,57.11,94,100,2.3,ZA,1651722812
Verkhnyaya Toyma,62.2349,44.9985,32.5,61,72,6.44,RU,1651722813
Mitsamiouli,-11.3847,43.2844,75.49,83,20,5.75,KM,1651722813
Faya,18.3851,42.4509,59.52,50,4,3.04,SA,1651722813
Jinzhou,41.1078,121.1417,74.71,36,71,26.71,CN,1651722814
Hokitika,-42.7167,170.9667,61.65,79,63,2.19,NZ,1651722814
Caçador,-26.7753,-51.015,55.26,90,100,5.5,BR,1651722815
Grand Gaube,-20.0064,57.6608,78.39,76,30,7.0,MU,1651722815
Haines Junction,60.7522,-137.5108,46.35,36,95,5.75,CA,1651722815
Tautira,-17.7333,-149.15,81.32,78,44,11.9,PF,1651722816
New Norfolk,-42.7826,147.0587,57.92,65,56,3.0,AU,1651722816
Bredasdorp,-34.5322,20.0403,57.56,90,100,3.22,ZA,1651722782
Bluff,-46.6,168.3333,66.79,75,74,3.51,NZ,1651722817
Ushuaia,-54.8,-68.3,38.86,75,20,3.44,AR,1651722611
Hobart,-42.8794,147.3294,58.26,71,75,12.66,AU,1651722817
Punta Arenas,-53.15,-70.9167,41.11,87,75,17.27,CL,1651722818
Castro,-24.7911,-50.0119,47.77,97,5,3.67,BR,1651722818
Rikitea,-23.1203,-134.9692,77.85,84,73,19.22,PF,1651722818
Andenes,69.3143,16.1194,33.78,69,0,18.41,NO,1651722819
Mandera,3.9366,41.867,78.17,74,16,12.75,KE,1651722819
Saldanha,-33.0117,17.9442,46.45,73,31,3.62,ZA,1651722820
Bathsheba,13.2167,-59.5167,79.41,83,40,13.8,BB,1651722820
Synya,65.3718,58.0387,26.65,60,31,6.78,RU,1651722820
Dikson,73.5069,80.5464,32.02,88,100,16.75,RU,1651722821
Yārāda,17.65,83.2667,89.92,66,20,6.91,IN,1651722821
Barrow,71.2906,-156.7887,16.32,90,32,12.01,US,1651722822
Hermanus,-34.4187,19.2345,54.81,75,54,5.48,ZA,1651722822
Kingston,17.997,-76.7936,81.55,80,20,14.97,JM,1651722678
Salym,60.0625,71.4789,56.64,39,36,13.98,RU,1651722823
Busselton,-33.65,115.3333,64.04,40,0,14.14,AU,1651722823
Shellbrook,53.2168,-106.4011,51.03,74,100,14.9,CA,1651722823
Naze,28.3667,129.4833,68.92,90,100,13.89,JP,1651722824
Sainte-Anne-des-Monts,49.124,-66.4924,42.67,75,84,20.71,CA,1651722824
San Cristobal,7.7669,-72.225,75.38,81,100,1.97,VE,1651722825
Bedēsa,8.9,40.7833,62.65,77,59,2.73,ET,1651722825
Harper,4.375,-7.7169,80.1,85,81,2.13,LR,1651722628
Lebu,-37.6167,-73.65,53.83,96,55,8.81,CL,1651722825
Qui Nhon,13.7667,109.2333,81.81,77,90,14.09,VN,1651722680
Pisco,-13.7,-76.2167,64.45,82,0,9.22,PE,1651722826
Port Elizabeth,-33.918,25.5701,59.29,100,20,3.44,ZA,1651722826
Sarwār,26.0667,75.0,93.09,23,0,8.95,IN,1651722827
Sioux Lookout,50.1001,-91.917,39.27,65,20,0.0,CA,1651722827
Upernavik,72.7868,-56.1549,1.24,93,12,5.93,GL,1651722828
Newport,51.5877,-2.9984,50.83,87,32,2.66,GB,1651722795
Saint George,37.1041,-113.5841,70.39,26,0,19.57,US,1651722661
Olinda,-8.0089,-34.8553,82.13,78,40,11.5,BR,1651722828
Guérande,47.3291,-2.4283,47.62,83,73,5.28,FR,1651722550
Yucca Valley,34.1142,-116.4322,74.39,17,0,1.99,US,1651722813
Panshi,42.9422,126.0561,76.64,29,100,26.64,CN,1651722829
Atuona,-9.8,-139.0333,79.16,74,20,13.87,PF,1651722829
Pevek,69.7008,170.3133,26.1,81,100,6.4,RU,1651722830
Bonfim,3.0833,-59.95,76.17,79,100,2.3,BR,1651722830
Winnemucca,40.973,-117.7357,64.45,29,0,0.0,US,1651722830
Esperance,-33.8667,121.9,62.44,56,86,14.56,AU,1651722831
Yellowknife,62.456,-114.3525,37.92,93,40,9.22,CA,1651722778
Piaçabuçu,-10.4056,-36.4344,77.18,87,36,8.12,BR,1651722831
Saint Paul Harbor,57.79,-152.4072,39.78,93,100,8.03,US,1651722832
Poum,-20.2333,164.0167,78.85,77,7,8.28,NC,1651722832
Alpena,45.0617,-83.4327,39.52,91,0,0.0,US,1651722832
Kapaa,22.0752,-159.319,80.58,90,17,4.0,US,1651722833
Flinders,-34.5833,150.8552,73.18,70,23,4.0,AU,1651722833
Bukachacha,52.9833,116.9167,44.42,20,100,11.9,RU,1651722834
Saskylakh,71.9167,114.0833,29.48,88,86,7.58,RU,1651722834
Northam,51.0333,-4.2167,50.61,97,22,4.03,GB,1651722834
Talnakh,69.4865,88.3972,34.21,100,100,11.95,RU,1651722835
Necochea,-38.5473,-58.7368,54.5,68,91,11.68,AR,1651722835
Inhambane,-23.865,35.3833,67.98,94,20,3.44,MZ,1651722836
Yangi Marg`ilon,40.4272,71.7189,70.52,52,62,9.22,UZ,1651722836
Qaqortoq,60.7167,-46.0333,31.51,78,100,6.53,GL,1651722837
Beira,-19.8436,34.8389,68.09,100,20,5.75,MZ,1651722837
Arlit,18.7369,7.3853,85.46,8,26,10.67,NE,1651722837
Torbay,47.6666,-52.7314,41.58,88,100,16.11,CA,1651722838
Aloleng,16.1307,119.7824,85.8,65,75,6.85,PH,1651722597
Portland,45.5234,-122.6762,69.78,58,0,5.75,US,1651722626
Smithers,54.7804,-127.1743,46.72,61,100,4.61,CA,1651722839
Fiumicino,41.7675,12.2291,59.0,90,94,4.61,IT,1651722839
Prince George,53.9166,-122.753,47.64,90,100,2.3,CA,1651722655
Manakara,-22.1333,48.0167,69.64,83,77,4.29,MG,1651722839
Yatou,37.15,122.3833,66.85,51,33,17.83,CN,1651722840
Saint-Augustin,51.226,-58.6502,35.94,96,100,10.83,CA,1651722840
Ponta do Sol,32.6667,-17.1,63.23,69,22,5.93,PT,1651722841
Constitución,-35.3333,-72.4167,55.24,79,94,3.0,CL,1651722841
Mar del Plata,-38.0023,-57.5575,54.95,72,0,13.8,AR,1651722842
Kushmurun,52.4503,64.6311,58.21,41,71,4.25,KZ,1651722842
Ugoofaaru,5.6667,73.0,85.05,73,100,14.5,MV,1651722843
La Reforma,25.0833,-108.05,68.95,80,0,5.68,MX,1651722843
Ribeira Grande,38.5167,-28.7,62.53,86,100,18.99,PT,1651722843
Buenos Aires,-34.6132,-58.3772,58.73,85,0,4.61,AR,1651722796
Tuktoyaktuk,69.4541,-133.0374,24.8,93,100,16.11,CA,1651722844
Jamestown,42.097,-79.2353,49.64,92,100,4.61,US,1651722844
Port Lincoln,-34.7333,135.8667,57.09,55,91,19.19,AU,1651722845
Hithadhoo,-0.6,73.0833,83.5,73,100,18.14,MV,1651722845
Hasaki,35.7333,140.8333,81.28,69,100,16.28,JP,1651722845
Kirakira,-10.4544,161.9205,82.44,78,35,3.78,SB,1651722846
Iwanai,42.9744,140.5089,67.78,51,57,5.61,JP,1651722846
Cervo,43.6702,-7.4101,55.96,90,47,7.85,ES,1651722847
Petropavlovsk-Kamchatskiy,53.0452,158.6483,45.19,57,20,11.18,RU,1651722847
Mattru,7.6244,-11.8332,77.2,93,91,1.61,SL,1651722848
Tomatlán,19.9333,-105.25,69.33,91,96,1.34,MX,1651722848
Thompson,55.7435,-97.8558,30.36,69,100,4.61,CA,1651722671
Bambous Virieux,-20.3428,57.7575,79.21,83,40,14.97,MU,1651722848
Butaritari,3.0707,172.7902,81.64,77,37,13.82,KI,1651722849
Teya,60.3778,92.6267,43.29,73,94,10.11,RU,1651722849
Hong Kong,22.2855,114.1577,82.45,69,100,11.01,HK,1651722578
Cairns,-16.9167,145.7667,88.11,65,38,10.36,AU,1651722850
Araouane,18.9048,-3.5265,84.07,23,40,4.56,ML,1651722850
Lavrentiya,65.5833,-171.0,28.71,80,28,5.21,RU,1651722851
Belmonte,-15.8631,-38.8828,77.59,88,4,9.37,BR,1651722851
Codrington,-38.2667,141.9667,55.04,58,94,8.41,AU,1651722852
Kahului,20.8947,-156.47,78.82,73,40,25.32,US,1651722632
Alyangula,-13.8483,136.4192,87.67,66,40,10.36,AU,1651722852
Port Augusta,-32.5,137.7667,59.94,49,49,18.99,AU,1651722627
Bariloche,-41.1456,-71.3082,49.75,76,40,6.11,AR,1651722842
Meerane,50.85,12.4667,51.84,96,100,3.44,DE,1651722853
Bodden Town,19.2833,-81.25,82.4,80,20,13.8,KY,1651722853
Bambanglipuro,-7.95,110.2833,85.64,69,98,6.98,ID,1651722853
Torrington,41.8007,-73.1212,55.69,92,80,5.01,US,1651722791
Tessalit,20.1986,1.0114,83.62,20,98,7.54,ML,1651722854
Walvis Bay,-22.9575,14.5053,70.75,35,0,5.75,NA,1651722640
Port Alfred,-33.5906,26.891,64.45,82,52,6.2,ZA,1651722854
Albany,42.6001,-73.9662,54.52,92,97,4.03,US,1651722576
Giyani,-23.3025,30.7187,60.37,83,0,3.13,ZA,1651722855
Hermiston,45.8404,-119.2895,69.64,56,94,3.06,US,1651722855
Asău,46.4333,26.4,46.96,83,68,3.65,RO,1651722856
Padang,-0.9492,100.3543,87.85,66,78,4.59,ID,1651722645
Kakamega,0.2842,34.7523,61.32,91,99,3.04,KE,1651722856
Puerto Ayora,-0.7393,-90.3518,73.31,91,57,5.08,EC,1651722857
Gravdal,68.1214,13.5031,33.69,100,100,11.5,NO,1651722857
São João da Barra,-21.6403,-41.0511,75.85,85,59,12.44,BR,1651722858
Saint-Philippe,-21.3585,55.7679,72.99,85,43,15.59,RE,1651722858
Kondopoga,62.2057,34.2614,31.69,73,19,4.21,RU,1651722858
Hamilton,39.1834,-84.5333,56.73,85,100,10.36,US,1651722859
Pampa,35.5362,-100.9599,51.84,100,100,17.27,US,1651722859
Rio Grande,-32.035,-52.0986,62.58,80,63,7.27,BR,1651722860
Tucuruí,-3.7661,-49.6725,73.89,96,100,2.19,BR,1651722860
Laas,46.6166,10.7002,49.08,91,70,1.16,IT,1651722861
Samarai,-10.6167,150.6667,82.92,78,79,9.55,PG,1651722861
Fortuna,40.5982,-124.1573,52.93,88,98,1.01,US,1651722861
Nouadhibou,20.931,-17.0347,62.92,85,0,19.08,MR,1651722862
Hilo,19.7297,-155.09,77.29,94,100,0.0,US,1651722664
Carnarvon,-24.8667,113.6333,82.47,30,40,18.41,AU,1651722863
Srandakan,-7.9386,110.2506,85.78,69,98,6.91,ID,1651722863
Kefamenanu,-9.4467,124.4781,83.88,64,81,8.48,ID,1651722864
Porto-Novo,6.4965,2.6036,76.82,90,100,1.54,BJ,1651722410
Hailin,44.5833,129.4167,84.0,18,90,23.15,CN,1651722864
Guadalajara,20.6667,-103.3333,71.53,28,95,4.5,MX,1651722661
Haldībāri,26.3333,88.7667,84.87,50,41,10.65,IN,1651722865
Ubrique,36.6778,-5.446,51.87,89,0,4.32,ES,1651722865
Nikolskoye,59.7035,30.7861,40.71,57,97,7.34,RU,1651722865
Ancud,-41.8697,-73.8203,53.42,98,100,6.53,CL,1651722866
Avarua,-21.2078,-159.775,82.45,74,41,5.75,CK,1651722866
Leningradskiy,69.3833,178.4167,23.27,90,85,10.42,RU,1651722640
Chui,-33.6971,-53.4616,54.95,82,0,2.37,UY,1651722638
Tommot,58.9564,126.2925,39.49,74,100,12.48,RU,1651722867
Boda,4.3189,17.4695,70.32,90,46,1.77,CF,1651722867
Coari,-4.085,-63.1414,72.39,98,93,2.64,BR,1651722868
Nālūt,30.3333,10.85,72.39,22,45,24.11,LY,1651722868
Kaitangata,-46.2817,169.8464,61.5,67,23,2.62,NZ,1651722868
Trebinje,42.7119,18.3442,50.36,87,20,5.75,BA,1651722869
Ust'-Kulom,61.6864,53.6902,32.14,64,58,7.63,RU,1651722873
Balakhta,55.38,91.6,49.48,31,1,8.93,RU,1651722873
Chara,56.9064,118.2631,35.94,41,98,2.66,RU,1651722874
Ilanskiy,56.2358,96.065,47.55,44,9,12.28,RU,1651722874
Oistins,13.0667,-59.5333,78.89,83,40,13.8,BB,1651722874
Kruisfontein,-34.0033,24.7314,55.89,86,55,4.23,ZA,1651722875
Iberia,29.9502,-91.7507,75.06,92,20,8.21,US,1651722875
Montbéliard,47.5167,6.8,52.75,98,100,2.62,FR,1651722876
Dawei,14.0833,98.2,92.97,46,60,3.13,MM,1651722876
Ngunguru,-35.6167,174.5,65.66,71,7,12.55,NZ,1651722876
Trani,41.2727,16.4154,54.86,75,52,1.99,IT,1651722877
Gornopravdinsk,60.05,69.9,54.1,46,56,11.23,RU,1651722877
Rincon,32.296,-81.2354,75.85,80,15,4.23,US,1651722877
Khatanga,71.9667,102.5,23.61,80,30,15.35,RU,1651722878
Kusa,55.3383,59.4406,53.67,58,97,8.32,RU,1651722878
Taoudenni,22.6783,-3.9836,82.13,15,35,3.06,ML,1651722879
Rusape,-18.5278,32.1284,50.7,96,69,1.32,ZW,1651722879
Paso de Carrasco,-34.8603,-56.0522,53.26,100,3,2.3,UY,1651722866
Pauini,-7.7136,-66.9764,71.89,95,96,1.43,BR,1651722880
Pangnirtung,66.1451,-65.7125,7.9,89,100,4.99,CA,1651722880
Najrān,17.4924,44.1277,72.25,21,0,1.59,SA,1651722880
Florianópolis,-27.6146,-48.5012,64.69,94,100,19.57,BR,1651722881
Paamiut,61.994,-49.6678,25.0,55,100,8.32,GL,1651722881
Labuhan,-6.8844,112.2051,86.02,65,86,3.02,ID,1651722882
Baykit,61.67,96.37,43.05,71,84,9.37,RU,1651722882
Tiksi,71.6872,128.8694,19.76,89,100,4.23,RU,1651722882
Altamira,-3.2033,-52.2064,72.5,98,96,0.87,BR,1651722606
Mehamn,71.0357,27.8492,24.75,63,40,12.66,NO,1651722883
Ukiah,39.1502,-123.2078,60.37,79,54,3.71,US,1651722613
Grindavik,63.8424,-22.4338,33.75,80,0,4.61,IS,1651722884
Bertoua,4.5833,13.6833,67.19,96,96,2.13,CM,1651722884
Narsaq,60.9167,-46.05,29.79,49,100,5.64,GL,1651722884
Gisborne,-38.6533,178.0042,61.61,73,59,5.23,NZ,1651722885
Lorengau,-2.0226,147.2712,83.71,78,79,4.56,PG,1651722885
Catuday,16.2923,119.8062,83.91,66,94,6.17,PH,1651722885
Vardø,70.3705,31.1107,27.21,73,89,8.7,NO,1651722886
Coyhaique,-45.5752,-72.0662,46.35,61,0,6.91,CL,1651722886
Riachão das Neves,-11.7461,-44.91,75.31,53,84,2.37,BR,1651722887
Airai,-8.9266,125.4092,72.3,66,100,4.36,TL,1651722887
Bubaque,11.2833,-15.8333,77.77,67,0,10.65,GW,1651722888
Sorong,-0.8833,131.25,85.46,69,73,5.99,ID,1651722888
Turukhansk,65.8167,87.9833,36.66,93,100,22.64,RU,1651722888
Bengkulu,-3.8004,102.2655,84.81,65,80,4.16,ID,1651722889
Vila Velha,-20.3297,-40.2925,80.55,78,40,9.22,BR,1651722889
Nanortalik,60.1432,-45.2371,31.26,85,100,5.59,GL,1651722890
Lüderitz,-26.6481,15.1594,68.2,44,0,4.0,NA,1651722890
Banda Aceh,5.5577,95.3222,84.54,73,100,13.91,ID,1651722890
Barrhead,55.7992,-4.3929,50.05,83,75,4.61,GB,1651722891
Kavieng,-2.5744,150.7967,84.72,74,100,12.5,PG,1651722891
Luba,3.4568,8.5547,73.29,77,100,5.21,GQ,1651722892
Sokolo,14.7328,-6.1219,87.28,21,73,11.95,ML,1651722892
Olafsvik,64.8945,-23.7142,35.28,74,99,9.15,IS,1651722892
Tasiilaq,65.6145,-37.6368,11.14,86,51,4.68,GL,1651722893
Chilca,-12.5211,-76.7372,63.64,91,14,4.25,PE,1651722893
Aklavik,68.2191,-135.0107,29.71,88,100,11.21,CA,1651722894
East London,-33.0153,27.9116,63.5,77,14,3.33,ZA,1651722894
Terrace,54.5163,-128.6035,46.31,70,100,17.27,CA,1651722880
Vao,-22.6667,167.4833,75.6,76,23,14.88,NC,1651722895
Le Port,-20.9373,55.2919,76.24,73,14,5.7,RE,1651722895
Namatanai,-3.6667,152.4333,84.54,71,94,9.24,PG,1651722895
Ixtapa,20.7,-105.2,70.52,86,57,1.23,MX,1651722896
Challans,46.8436,-1.8749,48.4,89,85,6.08,FR,1651722896
Polyarny,69.1989,33.4478,26.69,74,100,9.78,RU,1651722897
Geraldton,-28.7667,114.6,73.81,35,0,26.46,AU,1651722897
Beyneu,45.3167,55.2,63.81,36,3,12.24,KZ,1651722897
Kajaani,64.2273,27.7285,32.05,55,0,6.91,FI,1651722898
Pundaguitan,6.3711,126.1689,82.87,75,99,9.51,PH,1651722898
Okhotsk,59.3833,143.3,32.79,91,100,14.54,RU,1651722898
Felanitx,39.4696,3.1483,64.0,73,85,21.09,ES,1651722899
Puerto Escondido,15.85,-97.0667,81.43,74,0,4.61,MX,1651722899
Okha,53.5739,142.9478,35.64,91,100,19.04,RU,1651722900
Virginia Beach,36.8529,-75.978,70.02,91,100,7.61,US,1651722799
Katangli,51.7102,143.2326,33.78,98,100,12.01,RU,1651722900
Husavik,66.0449,-17.3389,31.46,93,100,0.87,IS,1651722901
Lethem,3.3803,-59.7968,75.94,80,98,4.05,GY,1651722901
Touros,-5.1989,-35.4608,76.37,93,90,11.01,BR,1651722633
Belford Roxo,-22.7642,-43.3994,77.29,88,75,5.75,BR,1651722901
Pringsewu,-5.3582,104.9744,89.51,55,45,3.0,ID,1651722902
Iqaluit,63.7506,-68.5145,6.53,78,20,23.02,CA,1651722902
Līvāni,56.3543,26.1758,39.04,62,100,4.05,LV,1651722903
Cherskiy,68.75,161.3,33.15,98,100,3.76,RU,1651722903
Cumbitara,1.6517,-77.5823,59.7,97,98,1.72,CO,1651722904
Soe,-9.8607,124.284,79.07,65,57,6.85,ID,1651722904
Kalmunai,7.4167,81.8167,86.77,68,52,3.85,LK,1651722905
Madimba,-10.4,40.3333,72.7,91,67,10.2,TZ,1651722905
Roald,62.5833,6.1333,46.33,81,40,16.11,NO,1651722906
Chokurdakh,70.6333,147.9167,24.89,82,99,6.69,RU,1651722906
Natal,-5.795,-35.2094,79.02,94,40,4.61,BR,1651722906
Renqiu,38.6989,116.0936,90.59,21,52,20.33,CN,1651722907
Severo-Kuril'sk,50.6789,156.125,34.83,92,80,11.27,RU,1651722907
San Jose,37.3394,-121.895,66.7,65,20,10.36,US,1651722580
Provideniya,64.3833,-173.3,28.51,80,20,8.99,RU,1651722908
Maceió,-9.6658,-35.7353,76.44,94,40,3.44,BR,1651722908
Pokhara,28.2333,83.9833,72.39,77,85,5.46,NP,1651722904
Oyama,36.3,139.8,79.59,29,84,6.44,JP,1651722909
Clarence Town,-32.5833,151.7833,74.86,64,28,5.77,AU,1651722909
Beihai,21.4833,109.1,78.42,68,100,7.38,CN,1651722909
Gloucester,51.8657,-2.2431,48.69,86,18,3.22,GB,1651722530
Ortaköy,38.7373,34.0387,44.85,83,58,10.13,TR,1651722910
Kjøllefjord,70.9457,27.3465,26.65,63,40,12.66,NO,1651722910
San Andrés del Rabanedo,42.6117,-5.6167,45.32,93,100,3.44,ES,1651722911
Mossamedes,-15.1961,12.1522,77.74,58,2,2.06,AO,1651722911
Ilebo,-4.3167,20.5833,69.51,88,62,1.88,CD,1651722912
Sola,-13.8833,167.55,81.75,71,21,3.76,VU,1651722912
Longyearbyen,78.2186,15.6401,19.24,63,20,0.0,SJ,1651722912
Sibolga,1.7427,98.7792,83.35,76,100,4.81,ID,1651722913
Los Llanos de Aridane,28.6585,-17.9182,60.55,79,100,9.22,ES,1651722913
Ani-e,8.6136,124.8706,77.77,75,100,2.44,PH,1651722914
Poya,-21.35,165.15,79.0,76,50,7.85,NC,1651722914
Buala,-8.145,159.5921,85.17,68,33,3.62,SB,1651722914
Fort Nelson,58.8053,-122.7002,54.99,33,20,4.61,CA,1651722915
Itarema,-2.9248,-39.9167,76.5,90,100,8.81,BR,1651722635
Awjilah,29.1081,21.2869,63.95,36,5,8.52,LY,1651722915
Semey,50.4111,80.2275,57.42,23,0,11.18,KZ,1651722635
Port Hardy,50.6996,-127.4199,46.58,93,100,2.3,CA,1651722916
Meulaboh,4.1363,96.1285,80.56,85,99,3.76,ID,1651722916
Anadyr,64.75,177.4833,32.5,74,0,6.71,RU,1651722917
Cabrobó,-8.5142,-39.31,73.29,80,99,10.54,BR,1651722917
Mogadishu,2.0371,45.3438,78.67,73,40,5.75,SO,1651722650
Boyuibe,-20.4167,-63.2833,51.73,65,0,3.06,BO,1651722918
Brae,60.3964,-1.353,46.58,79,100,11.12,GB,1651722918
Örnsköldsvik,63.2909,18.7153,34.75,100,100,3.44,SE,1651722918
São Félix do Xingu,-6.6447,-51.995,70.88,94,84,1.19,BR,1651722919
Piopio,-38.4667,175.0167,65.79,53,9,1.41,NZ,1651722919
Morros,-9.4467,-46.3003,73.02,73,76,3.76,BR,1651722920
Taganak,6.0833,118.3,87.94,75,100,5.61,PH,1651722920
Tilichiki,60.4667,166.1,31.8,88,93,9.13,RU,1651722921
Port Macquarie,-31.4333,152.9167,72.9,66,96,8.75,AU,1651722921
Luebo,-5.35,21.4167,69.73,87,84,1.32,CD,1651722921
Pavlovsk,50.4578,40.1081,42.58,69,82,15.9,RU,1651722922
Norman Wells,65.282,-126.8329,37.44,81,75,12.66,CA,1651722922
Opatija,45.3392,14.3083,55.2,86,72,3.22,HR,1651722923
Saddiqabad,28.3062,70.1307,95.18,23,0,11.16,PK,1651722923
Inírida,3.8653,-67.9239,73.53,98,97,0.56,CO,1651722924
Smirnykh,49.75,142.8333,45.21,79,100,11.54,RU,1651722924
Kutum,14.2,24.6667,75.34,16,61,8.46,SD,1651722925
Sitka,57.0531,-135.33,41.07,89,100,4.32,US,1651722925
Mīnāb,27.1467,57.0801,88.81,33,0,3.71,IR,1651722925
Dalby,-27.1833,151.2667,82.98,43,52,3.0,AU,1651722926
Consett,54.854,-1.8316,45.25,88,88,6.33,GB,1651722926
George Town,5.4112,100.3354,89.53,74,20,7.0,MY,1651722927
Methóni,36.8197,21.7049,58.21,76,0,6.02,GR,1651722927
Dvinskoy,62.1535,45.1175,32.52,59,70,6.73,RU,1651722927
Cayenne,4.9333,-52.3333,78.1,1,100,3.44,GF,1651722928
Polis,35.0367,32.4264,64.22,78,54,9.8,CY,1651722928
Dingle,10.9995,122.6711,89.33,58,94,12.28,PH,1651722929
Whitecourt,54.1502,-115.6855,54.64,62,75,5.75,CA,1651722929
Moussoro,13.6408,16.4901,86.65,23,97,4.09,TD,1651722929
Cotonou,6.3654,2.4183,76.98,83,40,3.44,BJ,1651722930
Nola,40.922,14.5329,61.93,73,66,4.97,IT,1651722930
Kyabé,9.4515,18.9449,76.64,72,90,4.45,TD,1651722931
North Bend,43.4065,-124.2243,52.92,90,40,0.0,US,1651722931
Gejiu,23.306,103.1635,56.19,75,100,2.86,CN,1651722932
Arrondissement de Saint-Denis,48.9167,2.3333,52.11,88,75,8.05,FR,1651722932
Province of Mantua,45.1667,10.7833,52.99,86,80,2.3,IT,1651722933
Iskateley,67.6803,53.1512,20.03,94,84,3.87,RU,1651722648
Burnie,-41.0667,145.9167,58.95,51,84,5.93,AU,1651722933
Udarnyy,54.3409,42.8611,36.61,67,9,10.0,RU,1651722934
Yarkovo,57.4028,67.0786,57.42,35,15,9.69,RU,1651722934
Waupun,43.6333,-88.7296,45.52,86,94,4.32,US,1651722934
Birao,10.2849,22.7882,78.37,59,64,3.09,CF,1651722935
Seymchan,62.8833,152.4333,37.24,69,25,4.83,RU,1651722935
Alta Floresta,-9.8756,-56.0861,70.3,95,58,1.16,BR,1651722870
Uiraúna,-6.5183,-38.4122,71.46,85,83,3.33,BR,1651722936
Kungurtug,50.5994,97.5228,46.78,21,21,3.6,RU,1651722936
Burladingen,48.2833,9.1167,45.86,90,95,0.31,DE,1651722937
Boshan,36.4833,117.8333,80.92,24,29,22.55,CN,1651722937
San Patricio,28.017,-97.5169,81.9,88,100,9.73,US,1651722937
Damaturu,11.747,11.9608,84.43,47,51,6.96,NG,1651722938
La Romana,18.4273,-68.9728,75.56,94,20,9.22,DO,1651722938
Bethel,41.3712,-73.414,57.29,85,75,9.22,US,1651722938
Puerto Madryn,-42.7692,-65.0385,61.74,57,74,9.84,AR,1651722656
Egvekinot,66.3167,-179.1667,24.28,77,46,2.48,RU,1651722939
Severo-Yeniseyskiy,60.3725,93.0408,39.85,76,90,9.95,RU,1651722939
Pleshanovo,52.8333,53.4833,55.22,53,35,15.7,RU,1651722940
Ahipara,-35.1667,173.1667,68.47,64,20,7.96,NZ,1651722940
Eravur,7.7733,81.6095,86.47,68,29,0.51,LK,1651722941
Changping,40.2186,116.2197,80.24,18,66,7.81,CN,1651722941
Ingham,42.6,-84.3833,46.35,88,0,3.44,US,1651722941
Ulladulla,-35.35,150.4667,69.76,79,57,7.07,AU,1651722942
Hofn,64.2539,-15.2082,40.66,72,100,3.85,IS,1651722942
Karatsu,33.4425,129.9697,78.69,57,0,6.17,JP,1651722779
Kiama,-34.6833,150.8667,73.38,71,25,1.01,AU,1651722634
Yibin,28.7667,104.6238,82.11,45,100,1.41,CN,1651722943
Isangel,-19.55,169.2667,84.31,74,40,6.91,VU,1651722943
Vigevano,45.3117,8.8611,60.22,88,98,2.08,IT,1651722944
Qaanaaq,77.484,-69.3632,16.7,93,100,5.21,GL,1651722944
Sobolevo,54.4299,31.8996,36.3,53,13,2.95,RU,1651722944
Alice Springs,-23.7,133.8833,69.22,32,40,14.97,AU,1651722938
Ilmajoki,62.7333,22.5667,37.98,64,0,9.22,FI,1651722945
Khanbari,27.3747,87.2039,73.0,73,69,1.92,NP,1651722945
Topolobampo,25.6,-109.05,68.43,76,1,3.65,MX,1651722946
Susanville,40.4163,-120.653,64.24,34,0,8.05,US,1651722946
Goderich,43.7501,-81.7165,40.91,81,36,4.61,CA,1651722883
Quryq,43.2,51.65,69.13,34,5,14.94,KZ,1651722947
Azare,11.6765,10.1948,84.2,42,55,6.6,NG,1651722947
Guiratinga,-16.3494,-53.7583,59.34,64,1,2.37,BR,1651722947
Gīdam,18.9833,81.4,95.32,34,56,4.65,IN,1651722948
Caravelas,-17.7125,-39.2481,77.59,88,1,9.57,BR,1651722948
Kupang,-10.1667,123.5833,88.29,61,65,11.5,ID,1651722949
Deniliquin,-35.5333,144.9667,58.42,37,2,9.06,AU,1651722949
Douglas,41.3,-96.167,51.66,86,100,4.61,US,1651722949
Hūn,29.1268,15.9477,68.5,30,33,17.72,LY,1651722950
Kensington,-33.9167,151.2167,74.79,61,75,11.5,AU,1651722950
Elban,50.1018,136.5094,57.51,49,100,9.17,RU,1651722950
Waitati,-45.75,170.5667,57.79,81,13,3.09,NZ,1651722951
Mayna,54.1135,47.6231,37.89,85,99,13.8,RU,1651722951
Kiryat Gat,31.61,34.7642,61.39,100,16,8.93,IL,1651722632
Mishkino,55.3389,63.9175,58.3,37,3,10.38,RU,1651722952
Dukhovshchina,55.1919,32.4111,35.37,53,22,3.36,RU,1651722952
Bilibino,68.0546,166.4372,32.58,94,99,2.89,RU,1651722953
Beïnamar,8.6698,15.3813,78.84,68,100,6.8,TD,1651722953
Martapura,-3.4167,114.85,87.89,70,40,2.3,ID,1651722953
Waipawa,-41.4122,175.5153,63.01,63,2,4.0,NZ,1651722954
Bilma,18.6853,12.9164,85.86,16,84,9.19,NE,1651722954
Mbigou,-1.9005,11.906,68.95,100,100,2.19,GA,1651722955
São Filipe,14.8961,-24.4956,71.55,81,7,2.71,CV,1651722838
Cochrane,51.1834,-114.4687,57.47,48,100,8.05,CA,1651722955
Oodweyne,9.4092,45.064,74.89,65,16,4.27,SO,1651722955
Te Anau,-45.4167,167.7167,62.58,63,29,4.7,NZ,1651722956
Boyolangu,-8.1181,111.8935,83.5,77,96,7.16,ID,1651722956
Sokol,59.4617,40.1206,32.36,62,19,6.85,RU,1651722957
Dunedin,-45.8742,170.5036,57.79,81,12,8.01,NZ,1651722957
Pasuruan,-7.6453,112.9075,87.69,65,97,3.56,ID,1651722957
Palmer,42.1584,-72.3287,53.15,89,0,0.0,US,1651722958
Souillac,-20.5167,57.5167,77.38,83,40,14.97,MU,1651722958
Jumla,29.2747,82.1838,65.68,50,24,6.96,NP,1651722959
Gijang,35.2442,129.2139,71.33,47,0,12.48,KR,1651722630
Faanui,-16.4833,-151.75,81.77,75,28,8.59,PF,1651722959
Comodoro Rivadavia,-45.8667,-67.5,53.46,40,0,23.02,AR,1651722960
Douentza,14.9951,-2.9517,86.72,13,63,4.36,ML,1651722960
Clyde River,70.4692,-68.5914,23.23,74,100,12.66,CA,1651722960
West Bay,19.3667,-81.4167,82.47,82,20,13.8,KY,1651722961
Vista Hermosa,19.5167,-99.2167,72.39,29,100,1.41,MX,1651722961
Charters Towers,-20.1,146.2667,85.96,40,4,2.59,AU,1651722962
Kumul,42.8,93.45,85.06,18,100,8.23,CN,1651722962
Turiaçu,-1.6633,-45.3717,74.43,94,99,2.75,BR,1651722963
Turaif,31.6725,38.6637,53.85,94,0,16.11,SA,1651722963
Vila Franca do Campo,37.7167,-25.4333,63.01,78,100,7.07,PT,1651722964
Ha Tinh,18.3333,105.9,79.95,54,5,4.5,VN,1651722964
Santa Isabel Rio Negro,-0.4139,-65.0192,72.45,98,100,1.66,BR,1651722965
Caucaia,-3.7361,-38.6531,75.15,84,0,2.3,BR,1651722965
Pinega,64.7001,43.3936,31.28,78,100,11.32,RU,1651722965
College,64.8569,-147.8028,55.38,35,75,10.36,US,1651722966
Byron Bay,-28.65,153.6167,81.95,70,35,10.89,AU,1651722966
Fagersta,60.0042,15.7932,41.99,74,55,6.64,SE,1651722967
Nemuro,43.3236,145.575,40.06,80,7,11.9,JP,1651722967
Salalah,17.0151,54.0924,84.22,67,1,3.15,OM,1651722967
Thal,35.4791,72.2439,61.3,51,0,2.98,PK,1651722970
Ivaiporã,-24.2478,-51.6847,50.88,98,28,2.13,BR,1651722971
Sørland,67.667,12.6934,38.89,94,100,28.34,NO,1651722971
Saint-Paul,-21.0096,55.2707,76.35,75,14,1.57,RE,1651722728
Garchitorena,13.8804,123.6946,86.29,66,33,6.55,PH,1651722972
Flin Flon,54.7682,-101.865,32.27,98,100,7.0,CA,1651722972
Marrakesh,31.6315,-8.0083,59.07,72,0,2.3,MA,1651722973
Mandalgovi,45.7625,106.2708,44.62,27,51,27.76,MN,1651722973
Cidreira,-30.1811,-50.2056,65.53,71,97,11.65,BR,1651722973
Aykhal,66.0,111.5,27.84,73,99,12.37,RU,1651722974
Safi,32.2994,-9.2372,59.86,90,0,10.89,MA,1651722974
Khokhlovo,59.1492,37.3998,33.82,67,64,5.5,RU,1651722975
Teguise,29.0605,-13.564,61.02,72,75,11.5,ES,1651722975
Nelson Bay,-32.7167,152.15,75.0,73,28,1.99,AU,1651722976
Kindu,-2.95,25.95,70.39,94,90,1.9,CD,1651722976
Dzilam González,21.2833,-88.9333,79.84,72,59,8.37,MX,1651722976
Wilmington,34.2257,-77.9447,73.0,78,100,3.0,US,1651722957
Twin Falls,42.3505,-114.6445,49.93,50,31,5.26,US,1651722977
Hakkâri Province,37.5833,44.1667,51.53,58,58,4.74,TR,1651722977
Jizan,17.3333,42.6667,86.94,46,3,1.5,SA,1651722978
Shimoda,34.6667,138.95,75.11,62,100,9.64,JP,1651722978
Seoul,37.5683,126.9778,76.39,37,0,10.36,KR,1651722912
Ust'-Koksa,50.2696,85.6108,56.89,52,97,3.74,RU,1651722979
Nouakchott,18.0858,-15.9785,69.73,74,4,13.09,MR,1651722979
Xinan,26.72,119.8556,69.62,61,100,3.58,CN,1651722979
Nome,64.5011,-165.4064,40.15,75,0,6.91,US,1651722980
Sangamner,19.5667,74.2167,91.0,20,0,13.33,IN,1651722980
Zyryanovsk,49.7386,84.2719,60.51,52,96,3.2,KZ,1651722981
Charagua,-19.8,-63.2167,52.36,60,0,2.75,BO,1651722981
Krasnyy Chikoy,50.3643,108.7512,44.42,37,62,15.7,RU,1651722981
Monrovia,6.3005,-10.7969,79.88,82,55,1.1,LR,1651722982
Sur,22.5667,59.5289,85.98,48,0,8.01,OM,1651722982
Remanso,-9.6179,-42.0831,77.74,68,100,6.85,BR,1651722983
Ponta Delgada,37.7333,-25.6667,63.32,77,75,11.5,PT,1651722635
Linhares,-19.3911,-40.0722,72.46,97,10,4.16,BR,1651722983
Laguna,38.421,-121.4238,80.89,38,0,10.36,US,1651722646
Saint Anthony,45.0205,-93.218,57.13,55,0,4.61,US,1651722883
Pangody,65.85,74.4859,31.08,88,100,14.2,RU,1651722984
Zhezkazgan,47.8043,67.7144,49.98,93,40,6.71,KZ,1651722984
Ishigaki,24.3448,124.1572,75.33,100,75,13.8,JP,1651722985
Lazurne,46.084,32.5295,52.0,67,77,19.64,UA,1651722985
Cabo San Lucas,22.8909,-109.9124,72.61,66,5,13.53,MX,1651722986
Palana,59.1167,159.9667,29.71,84,96,11.25,RU,1651722644
Urucará,-2.5364,-57.76,72.81,98,89,1.3,BR,1651722986
Tshikapa,-6.4167,20.8,69.87,84,96,2.46,CD,1651722987
Tiznit Province,29.5833,-9.5,55.58,85,21,1.3,MA,1651722987
Herat Province,34.5,62.0,71.35,38,0,1.99,AF,1651722988
Dubrovnik,42.6481,18.0922,53.24,87,20,5.75,HR,1651722988
Sumter,28.7086,-82.0831,76.95,82,1,0.78,US,1651722989
Acaraú,-2.8856,-40.12,77.16,88,100,9.91,BR,1651722989
Orbetello,42.4408,11.2196,54.48,81,96,4.38,IT,1651722989
Contamana,-7.3333,-75.0167,71.42,99,75,2.68,PE,1651722990
Keuruu,62.2667,24.7,35.8,67,100,5.53,FI,1651722990
Corabia,43.7833,24.5,45.18,82,36,3.18,RO,1651722991
Hobyo,5.3505,48.5268,84.06,68,69,14.23,SO,1651722991
Urgut,39.4022,67.2431,65.82,55,24,2.91,UZ,1651722992
Ihosy,-22.4,46.1167,59.79,88,74,7.52,MG,1651722992
Tame,6.461,-71.73,79.14,57,83,5.88,CO,1651722992
Mount Gambier,-37.8333,140.7667,48.11,100,75,4.61,AU,1651722993
Philadelphia,39.9523,-75.1638,64.2,89,100,6.91,US,1651722821
Radcliff,37.8404,-85.9491,58.98,77,100,6.91,US,1651722993
La Palma,33.8464,-118.0467,75.9,76,0,6.91,US,1651722994
Tegul'det,57.3064,88.1667,50.29,34,30,8.48,RU,1651722994
Bereda,43.2686,-7.5406,47.57,94,97,4.32,ES,1651722994
Vung Tau,10.346,107.0843,84.63,74,80,12.41,VN,1651722995
Syracuse,37.0881,15.2792,56.32,75,24,1.92,IT,1651722860
Krapivinskiy,54.9992,86.8133,49.6,35,100,2.98,RU,1651722995
Lisala,2.15,21.5167,70.75,88,95,1.03,CD,1651722996
Wagar,16.1525,36.2032,88.0,31,10,11.43,SD,1651722996
Carnduff,49.1667,-101.8009,49.37,66,14,7.61,CA,1651722997
Kosonsoy,41.2561,71.5508,61.36,82,100,5.79,UZ,1651722997
Sisimiut,66.9395,-53.6735,15.22,84,15,6.2,GL,1651722997
Bhindār,24.5,74.1833,91.65,21,0,4.72,IN,1651722998
Mirpur Sakro,24.5474,67.6277,86.22,56,0,11.34,PK,1651722998
Saint-Joseph,-21.3667,55.6167,71.98,80,22,15.55,RE,1651722999
Pacific Grove,36.6177,-121.9166,53.71,90,75,10.36,US,1651722720
Polson,47.6936,-114.1632,57.22,67,98,3.0,US,1651722999
Kushima,31.4583,131.2333,73.15,56,100,10.4,JP,1651722999
Arman',59.7,150.1667,41.02,75,13,6.15,RU,1651723000
Yurty,56.0498,97.6348,48.09,36,4,9.15,RU,1651723000
Praia da Vitória,38.7333,-27.0667,62.76,94,40,12.66,PT,1651723001
Guymon,36.6828,-101.4816,50.0,87,100,21.85,US,1651723001
Koslan,63.4564,48.8989,29.61,68,41,8.16,RU,1651723002
Maniitsoq,65.4167,-52.9,14.41,80,22,7.76,GL,1651723002
Bundaberg,-24.85,152.35,81.21,72,40,8.05,AU,1651723002
Alberton,46.8168,-64.0654,44.73,95,100,13.58,CA,1651723003
Leh,34.1667,77.5833,47.3,54,97,4.94,IN,1651723003
Krasnogorodskoye,56.8357,28.2822,37.08,55,100,3.8,RU,1651723004
Bagdarin,54.4333,113.6,36.86,23,95,11.27,RU,1651723004
General Roca,-39.0333,-67.5833,58.77,41,72,3.71,AR,1651723005
Westport,41.1415,-73.3579,59.09,92,64,6.42,US,1651722813
Bud,39.447,-86.1758,57.67,85,100,6.53,US,1651722622
Outjo,-20.1167,16.15,53.8,41,0,9.78,NA,1651723005
Lompoc,34.6391,-120.4579,62.74,92,100,9.22,US,1651722765
Pytalovo,57.0679,27.9138,37.2,55,100,3.74,RU,1651723006
Tiarei,-17.5333,-149.3333,82.42,78,27,11.45,PF,1651722620
Oktyabr'skoye,43.0645,44.7417,50.14,93,96,0.0,RU,1651723006
Sergiyev Posad,56.3,38.1333,32.92,66,14,7.92,RU,1651723007
Pedernales,18.0384,-71.744,79.25,73,62,4.54,DO,1651723007
Lewiston,44.1003,-70.2148,49.24,98,100,4.61,US,1651723007
Liliani,32.2065,72.9537,90.27,27,0,4.41,PK,1651723008
Itacaré,-14.2775,-38.9967,75.65,90,6,4.83,BR,1651723008
Katsuura,35.1333,140.3,69.82,71,100,13.65,JP,1651723009
Negombo,7.2083,79.8358,82.45,89,40,4.61,LK,1651723009
Sambava,-14.2667,50.1667,74.84,77,40,11.61,MG,1651723009
Adjumani,3.3779,31.7909,66.04,96,90,0.63,UG,1651723010
Basoko,1.2391,23.616,72.54,87,100,2.75,CD,1651723010
Coahuayana Viejo,18.7333,-103.6833,71.96,84,78,1.54,MX,1651723011
Danville,36.586,-79.395,70.36,89,41,1.99,US,1651722914
Kaeo,-35.1,173.7833,68.32,76,23,10.31,NZ,1651723011
Vestmannaeyjar,63.4427,-20.2734,39.51,65,100,4.27,IS,1651723012
Troitskoye,52.9821,84.6757,51.24,34,98,6.02,RU,1651723012
Tuatapere,-46.1333,167.6833,64.17,70,90,5.3,NZ,1651723012
Pitelino,54.5777,41.8145,36.27,68,13,11.88,RU,1651723013
Milak,28.6167,79.1833,93.16,27,16,0.6,IN,1651723013
Presidencia Roque Sáenz Peña,-26.7852,-60.4388,51.31,92,0,4.07,AR,1651723013
Ilulissat,69.2167,-51.1,2.39,95,64,6.46,GL,1651723014
Pingliang,35.5392,106.6861,82.18,24,7,5.68,CN,1651723014
White Rock,49.0164,-122.8026,54.73,92,100,5.01,CA,1651723015
Kafanchan,9.5833,8.3,69.96,80,99,1.97,NG,1651723015
Atid,46.45,25.05,43.34,90,99,3.42,RO,1651723015
Bitung,1.4451,125.1824,92.25,72,45,4.56,ID,1651723016
San Fernando del Valle de Catamarca,-28.4696,-65.7852,62.78,53,4,8.1,AR,1651723016
Wajima,37.4,136.9,77.68,33,0,6.91,JP,1651723017
Rawson,-43.3002,-65.1023,61.25,58,78,10.67,AR,1651723017
Acapulco de Juárez,16.8634,-99.8901,79.07,67,89,5.68,MX,1651723018
San Rafael,-34.6177,-68.3301,59.58,36,100,8.14,AR,1651723018
Kalamazoo,42.2506,-85.55,46.65,89,83,5.26,US,1651722975
Hay River,60.8156,-115.7999,44.58,81,40,1.14,CA,1651722826
Glenwood Springs,39.5505,-107.3248,41.67,72,100,0.0,US,1651722942
Kysyl-Syr,63.8986,122.7617,34.52,74,100,7.58,RU,1651723019
Lerik,38.7726,48.4128,50.72,81,3,3.18,AZ,1651723019
De Aar,-30.6497,24.0123,57.27,44,6,3.29,ZA,1651723019
Alofi,-19.0595,-169.9187,80.49,69,40,6.91,NU,1651723020
NEDJO,9.5046,35.5019,60.33,89,27,2.93,ET,1651723020
São Pedro,-22.5486,-47.9139,51.94,90,0,5.19,BR,1651723020
Kavaratti,10.5669,72.642,84.22,76,100,13.67,IN,1651723021
Copiapó,-27.3667,-70.3333,55.09,74,54,1.01,CL,1651723021
Koumac,-20.5667,164.2833,79.0,77,58,7.61,NC,1651723022
Berezovyy,51.6667,135.7,49.91,77,100,2.39,RU,1651723022
Berlevåg,70.8578,29.0864,24.8,69,92,7.78,NO,1651723023
Teeli,51.0333,90.2333,41.32,34,100,3.02,RU,1651723023
Mildura,-34.2,142.15,53.56,66,75,8.05,AU,1651723024
